name,lat,lon,type,color,fill_color,year,size,address,inscription,coordinates_dms,Survey_date,Condition comment,Deterioration level,photo_filename,,水難避け,機能の解説　水難避けなら○　(舟運の安全祈願も水難避けとして含む)
二瀬ダム,35.94158,138.90938,other,darkgreen,darkgreen,1961年完成,高さcm 幅cm 厚cm,,,"35°56'29.67""N 138°54'33.76""E",2024年4月10日,堤高95m　2019年台風19号の時には総貯水量2690万m3に対して過去最大の1735万m3の水量を貯留。昭和36年完成,★★★★☆,Futase_dam.jpg,FALSE,,完成から64たった現在経年劣化が進んでいるという(2025年の見学時に)
手島の水天宮碑,36.12428,139.38729,water,Blue,Lightblue,1977年,高さ85cm 幅60cm 厚10cm,熊谷市手島,昭和五十二年三月吉日建之　大字手島氏子一同,"36°7'27.42""N 139°23'14.232""E",2025年3月2日,手島神社境内にある「水天宮」石碑。状態はとてもよい。特に表面の文字ははっきり見える。,★★★★★,tejima_suitengu_monument.jpg,TRUE,×,荒川まで500m、江戸期には水害も。昭和50年、若者の早逝があいつぎ、日本橋水天宮から勧請。
村岡の九頭龍大権現碑,36.12786,139.37720,dragon,green,Lightgreen,1926年再建,高さ90cm 幅40cm 厚40cm,熊谷市村岡,(正面)戸隠山九頭龍大権現　大正十五年十月一日　大字村岡再建　世話人　松葉定吉外6名,"36°7'40.29""N 139°22'37.91""E",2025年3月2日,土手から転がり落として雨乞いの催事に使われていたが全体的に良い状態。明治四十三年八月の大洪水に流失し、大正15年に再建。,★★★★☆,muraoka_kuzuryu_dragon.jpg,TRUE,○,雨乞いにも使われた。江戸期に水害あり。
明秋神社境内の水神宮碑,36.05742,139.48049,water,Blue,Lightblue,1810年,高さ60cm 幅30cm 厚18cm,埼玉県比企郡吉見町明秋510 　明秋神社境内,文化七　十二月吉日　願主　巣殿谷,"36°3'26.712""N 139°28'49.746""E",2025年3月2日,笠上部に若干の地衣類付着以外、目立った劣化は見られない。,★★★★☆,myosyu_shrine_suijingu.jpg,TRUE,○,荒川はすぐ背後。
火防稲荷近くの辨財天女碑,36.10118,139.41532,benten,Darkred,Orange,-,高さ45cm 幅20cm 厚15cm,埼玉県熊谷市津田　火防稲荷ちかく,(左)井川藤之孫半七,"36°6'4.242""N 139°24'55.152""E",2025年3月2日,経緯年劣化による黒ずみ、正面、左側面に地衣類の付着,★★★☆☆,kabo_inari_shrine_benzaitennyo(front).jpg,TRUE,○,通殿川と荒川に挟まれた津田地区。
火防稲荷近くの弁才天碑,36.10124,139.41528,benten,Darkred,Orange,1989年,高さ80cm 幅30cm 厚30cm,埼玉県熊谷市津田　火防稲荷ちかく,"(表面)平成元年四月吉日
施主斉藤繁豊
(台座)辨財天","36°6'4.47""N 139°24'55.02""E",2025年3月2日,平成元年建立、状態美麗。しかしドロバチ類の巣が弁財天左右肩にある。,★★★★☆,kabo_inari_shrine_benzaiten(center).jpg,TRUE,○,通殿川と荒川に挟まれた津田地区。
荒川パノラマ公園の九頭龍神碑,36.09475,139.43812,dragon,green,Lightgreen,1878年,高さ115cm 幅50cm 厚10cm,鴻巣市大芦1366荒川パノラマ公園階段下,水下安全　明治十一年,"36°5'41.088""N 139°26'17.226""E",2025年3月2日,正面、両側面に層状になった地衣類付着目立つ。隣に一目連大神も。火・水・風の神様であり、台風、雨乞いの祈念。,★★★☆☆,panorama_kuzuryu_dragon.jpg,TRUE,○,裏面に水下安全と刻まれた九頭龍大神。鍛冶屋と関係が深いと説明板にある。
一ツ木の九頭龍大神碑,36.06315,139.46383,dragon,green,Lightgreen,1903年,高さ140cm 幅59cm 厚23cm,埼玉県比企郡吉見町一ツ木165　氷川神社参道,明治三十六年十月吉日　大字一ツ木中　世話人10名、発起人3名,"36°3'47.322""N 139°27'49.782""E",2025年3月2日,正面、側面、裏面とも地衣類付着。,★★★☆☆,hitotsugi_kuzuryu_dragon.jpg,TRUE,○,荒川がすぐそば
吉見町明秋の九頭龍大神碑,36.05928,139.47429,dragon,green,Lightgreen,1914年,高さ120cm 幅85cm 厚14cm,埼玉県吉見町明秋,大正三年八月十五日其設　埼玉県比企郡吉見村大字明秋　宮崎由三郎ほか9人の名前,"36°3'33.39""N 139°28'27.45""E",2025年3月2日,正面、側面、裏面、刻まれた文字見えづらいほどの地衣類の付着が激しい。台座にオレンジ色の地衣類付着(写真は3月8日),★☆☆☆☆,myosyu_kuzuryu_dragon.jpg,TRUE,○,荒川まで50mもない。
荒神社の九頭龍大権現碑,36.06506,139.46531,dragon,green,Lightgreen,1864年,高さ75cm 幅28cm 厚20cm,埼玉県比企郡吉見町一ツ木236　荒神社境内,元治元甲子年 四月吉日,"36°3'54.216""N  139°27'55.098""E",2025年3月2日,正面に地衣類付着も刻まれた文字ははっきり見える。笠部分が欠損、倒壊し石碑後方に置かれている。,★★☆☆☆,ara_shrine_kuzuryu_dragon.jpg,TRUE,○,荒川がすぐそば
淵がまちの弁天社,36.05893,139.46129,benten,Darkred,Orange,1739年,高さ100cm 幅25cm 厚 - cm,埼玉県比企郡吉見町地頭方,(表面)巳日待供養　元文四年巳未天三月吉日,"36°3'32.13""N  139°27'40.632""E",2025年3月2日,社のなかに祀られ薄い膜のような地衣類に全面覆われている。浮彫の部には破損等ない。牛の供養のため建立(吉見町史下巻),★★★★☆,fuchigamachi_benten.jpg,TRUE,-,「淵がまち」がすぐそばにある。吉見町は洪水常襲地域。
明秋神社の水神大神,36.05737,139.48043,water,Blue,Lightblue,1915年,高さ52cm 幅 29cm 厚 - cm,埼玉県比企郡吉見町明秋510 　明秋神社境内,願主　宮崎由三？,"36°3'26.544""N  139°28'49.548""E",2025年3月2日,木の根元に隠れてしまっている。側面に若干の地衣類。大正四年（1915）三月建立,★★★★☆,myosyu_shrine_suijinokami.jpg,TRUE,○,荒川がすぐそば
高城神社の水神宮碑,36.10036,139.40569,water,Blue,Lightblue,-,高さ60cm 幅40cm 厚7cm,熊谷市高本562　高城神社境内,-,"36°6'1.302""N 139°24'20.49""E",2025年3月2日,層状になった濃いめの地衣類付着も表面の刻まれた文字ははっきり見える。水が流れたような跡あり。「大里村の石佛」に記載。,★★☆☆☆,takagi_shrine_sujingu.jpg,TRUE,,
吉見町江和井の水神宮碑,36.01968,139.49824,water,Blue,Lightblue,1802年,高さ69cm 幅34cm 厚20cm,吉見町江和井,(右)享和二戌年六月吉日　(左)江川、大和谷、⬜︎井、久保田、下細谷　新田,"36°1'10.854""N 139°29'53.658""E",2025年3月8日,(□井　→荒井) 傘部分に黒ずみと分厚い地衣類。表面に若干の地衣類、台座にオレンジの地衣類。洪水常襲地帯。堤防下に注連竹で囲まれ祀られている。,★★☆☆☆,ewai_suijingu.jpg,TRUE,,
高尾橋、左の水神宮碑(昭和9年),36.02681,139.50549,water,Blue,Lightblue,1934年,高さ74cm 幅35cm 厚6cm,北本市高尾,"(裏面)
河岸水神講中
昭和九年三月吉日
発起者　新井米八　□沼亀吉 
世話人　田島太郎　新井勘次　天沼榮之助

(右)、(左)側面には銘文なし","36°1'36.528""N 139°30'19.758""E",2025年3月8日,側面から裏面にかけて地衣類付着。明治の水害を経験。注連竹で祀られる。JAさいたま広報誌2024年6月号表紙、特集技師にも。,★★★★☆,takao_bridge_suijingu(left).jpg,TRUE,○,高尾河岸がすぐそば。舟運の安全祈願、水難よけのため
高尾橋、右の水神宮碑(昭和42年),36.02680,139.50549,water,Blue,Lightblue,1967年,高さ55cm 幅20cm 厚15cm,北本市高尾,"(右)昭和四十二年七月吉日
(左)判別不能","36°1'36.474""N 139°30'19.77""E",2025年3月8日,比較的新しいはずだが各所に剥落あり。刻まれた文字ははっきり見える。,★★★★☆,takao_bridge_suijingu(right).jpg,TRUE,○,高尾河岸がすぐそば。舟運の安全祈願、水難よけのため
冠水橋架設祈念碑よこの水神宮碑,36.04263,139.50639,water,Blue,Lightblue,1932年,高さ110cm 幅55cm 厚10cm,鴻巣市滝馬室,架橋竣成昭和七年五月廿六？日　神宮祭祀　昭和十二年一月十五日　発起人　金子善太郎他19人の名前,"36°2'33.462""N  139°30'22.998""E",2025年3月8日,黄色いさびのような地衣類が覆われているが刻まれる文字ははっきり見えている。荒川方面には原間室橋(沈下橋)。,★★★★☆,flooding_bridge_takimamuro_suijingu.jpg,TRUE,○,
久保田新田の九頭龍大神碑,36.02772,139.49980,dragon,green,Lightgreen,1895年,高さ95cm 幅40cm 厚10cm,埼玉県比企郡吉見町久保田新田,(裏面)明治廿八年九月九日再建　大字須之子　最寄講中　世ハ人(注 : 世話人のことか)　小林豊蔵小林平次郎」,"36°1'39.792""N  139°29'59.262""E",2025年3月8日,洪水常襲地帯。大囲堤。表面黒ずんでいるが文字ははっきり。正面亀裂。裏面に黒いカビ？となりの石碑は文政十三年,★★★★☆,kubota_shinden_kuzuryu_dragon.jpg,TRUE,,
小谷の水神碑,36.07995,139.46478,water,Blue,Lightblue,1895年,高さ70cm 幅42cm 厚10cm,吹上町小谷,明治廿八年三月十七日　堤根側氏子中,"36°4'47.83""N 139°27'53.22""E",2025年3月14日,表面が焼けたかのような色になっている。裏面の文字は鮮明。,★★★☆☆,koya_suijin.jpg,TRUE,○,五反田河岸があったという
常永寺の弁才天祠,36.11198,139.39953,benten,Darkred,Orange,-,高さ85cm 幅40cm 厚45cm,熊谷市小泉１７ 常永寺境内,□□大里郡小泉村　願主17人の名前,"36°6'43.14""N 139°23'58.296""E",2025年3月14日,池に中島がありそこに祀られている。傘部分「弁才天」と判読できるが、正面のも時は風化。,★★☆☆☆,jyoei_temple_benten.jpg,TRUE,,
小谷の九頭龍神社碑,36.08007,139.46490,dragon,green,Lightgreen,1813年,高さ63cm 幅25cm 厚16cm,鴻巣市小谷,(左)文化十□□□□武□□□□,"36°4'48.24""N 139°27'53.64""E",2025年3月14日,正面の文字は比較的鮮明も地衣類付着。裏面上部に白緑の地衣類多く付着。左側面も地衣類で真っ白だが「文化十」は判読可能。,★★☆☆☆,koya_kuzuryu_dragon.jpg,TRUE,○,五反田河岸があったという
久下神社裏の辨財天碑,36.12161,139.41780,benten,Darkred,Orange,1818年,高さ87cm 幅58cm 厚52cm,埼玉県熊谷市久下８２９,(右側面)文政元寅年八月吉□,"36°7'17.796""N  139°25'4.074""E",2025年3月14日,正面「辨財天」、世話人の名前も判読可能。久下神社の裏、久下小学校横　他に九頭龍大神碑があるはずだが確認できなかった,★★☆☆☆,kuge_shrine_benten.jpg,TRUE,○,久下旧新川村三島神社から移転されたものというが現在確認できず。
決潰の跡碑,36.11122,139.43047,other,darkgreen,darkgreen,1958年,高さcm 幅cm 厚cm,熊谷市久下,(詳細はリンク先_未設定！),"36°6'40.404""N  139°25'49.68""E",2025年3月14日,正面は本飛渡内が裏面は地衣類付着により碑文判読できない部分多数。碑文はhttps://www.ktr.mlit.go.jp/ktr_content/content/000684986.pdf,★★★★☆,arakawa_river_burst.jpg,TRUE,,
久下八幡宮の水神宮碑,36.10723,139.43660,water,Blue,Lightblue,1856年,高さ67cm 幅29cm 厚11cm,熊谷市久下,(左側面)安政三⬜︎年六月吉日　(裏面)江川村,"36°6'26.04""N  139°26'11.754""E",2025年3月14日,2018年頃には亀裂部分から分離していた記録写真ががあるが、調査日には修復されていた。亀裂より下半分は地衣類多く付着。,★★★☆☆,kuge_hachimangu_suijingu.jpg,TRUE,,
久下八幡宮の九頭龍大権現,36.10727,139.43655,dragon,green,Lightgreen,-,高さ47cm 幅22cm 厚14cm,熊谷市久下,(左側面)江川村,"36°6'26.166""N  139°26'11.568""E",2025年3月14日,正面の「九頭龍大権現」の文字は判読可能。風化・摩耗激しい。上部に四角い穴があり傘部があったと考えられる。,★☆☆☆☆,kuge_hachimangu_kuzuryu_dragon.jpg,TRUE,,
水防倉庫横の九頭龍大神碑,36.07440,139.46916,water,Blue,Lightblue,1892年,高さ120cm 幅88cm 厚16cm,鴻巣市小谷,明治二十五年十月建立　長島貞蔵　長島且吾　金一円五十銭新宿側,"36°4'27.822""N  139°28'8.988""E",2025年3月14日,荒川北縁水防事務組合水防倉庫大10号棟横。表面カビか？真っ白になっている。右半分に少しの亀裂。裏面世話人等の名前は判読可能。,★★★★☆,flood_control_warehouse_kuzuryu_dragon.jpg,TRUE,,
飯島新田の水神宮碑,36.02398,139.48113,water,Blue,Lightblue,1807年,高さ52cm 幅20cm 厚11cm,吉見町飯島新田,(左)飯島新田願主　江森新五郎　(右)文化四甲子歳正月吉日,"36°1'26.31""N 139°28'52.05""E",2025年3月23日,洪水常襲地帯。銘文中「文□四(のこりは判別不能)」正面風化、亀裂、地衣類少し付着。側面の文字は判読可能,★★☆☆☆,iijima_shinden_suijingu.jpg,TRUE,○,吉見町、川島町は洪水常襲地域。
久下の渡しそばの九頭龍□社,36.12308,139.40486,dragon,green,Lightgreen,1787年,高さ65cm 幅30cm 厚36cm,熊谷市久下,天明七年八月吉日　忍領久下邑,"36°7'23.088""N  139°24'17.496""E",2025年3月23日,正面「九頭龍」の文字判別可能。傘部分地衣類付着。左側面にも地衣類。側面銘文は判読不可。(銘文内容は「石仏入門 日下部朝一郎 著 国書刊行会 1972」),★☆☆☆☆,kuge_river_crossing_kuzuryu_dragon.jpg,TRUE,,
久下の渡し冠水橋跡碑,36.12312,139.40467,other,darkgreen,darkgreen,2003年,高さcm 幅cm 厚cm,熊谷市久下,現在の久下橋は平成15年6月15日に開通,"36°7'23.22""N  139°24'16.8""E",2025年3月23日,おもいやりの碑とも言う。旧久下橋(冠水橋)の記念碑。昭和30年までは橋がなく、久下の渡しがあった。,★★★★☆,kuge_river_crossing_monument.jpg,TRUE,,
丸貫の大辯財天女碑,36.04537,139.47280,benten,Darkred,Orange,1774年,高さ96cm 幅55cm 厚14cm,埼玉県比企郡吉見町丸貫,(裏面)安永三年甲午十二月,"36°2'43.326""N  139°28'22.074""E",2025年3月23日,台座高さ20cm 現在のハザードマップでは高リスク箇所にある。正面左下に向かって深い亀裂。点々とした地衣類左上部、「弁」の文字に白の、また台座に地衣類、黄色のものも見られる。左側面の白い地衣類広く分布。右に5基、馬頭觀音3体など。,★★★☆☆,marunuki_benten.jpg,TRUE,○,現代のハザードマップでは高リスクになっている。
阿津満稲荷境内の九頭龍大権現,35.99543,139.50381,dragon,green,Lightgreen,1933年,高さ68cm 幅45cm 厚23cm,埼玉県比企郡川島町三保谷宿,(裏面)昭和八年八月 勧請 藤間維章,"35°59'43.56""N  139°30'13.716""E",2025年3月23日,丸形の自然石。洪水のイメージ強い地区。刻まれた文字も鮮明、状態はよい方か。台座高さ40cm,★★★★★,otsuma_inari_kuzuryu_dragon.jpg,TRUE,○,鳥羽井河岸、市野川と荒川
馬能堂荒工稲荷境内の水天宮碑,35.88750,139.55746,water,Blue,Lightblue,1894年,高さ90cm 幅73cm 厚9cm,さいたま市西区飯田新田２５２,(裏面)明治二十七年九月吉日建立　北足立郡馬宮村大字飯田新田　発企人岡田由之じょう　世話人3人の名前　台座に大字植田谷本村新田6人　大字二ツ宮3人　大字西遊馬1人　大字大宮1人　入間郡東大久保2人　同郡南畑3人,"35°53'14.988""N  139°33'26.844""E",2025年3月23日,台座50cm 稲荷大明神境内の、水天宮。正面に地衣類付着も裏面は少ない。,★★★★☆,arako_sujtengu.jpg,TRUE,○,びん沼川ちかく
畔吉諏訪神社境内、左の水神宮碑,35.96495,139.54783,water,Blue,Lightblue,1843年,高さ58cm 幅24cm 厚12cm,上尾市大字畔吉835　諏訪神社境内,天保十四卯九月吉日　(表面)水神⬜︎ (右側面)願主井原□,"35°57'53.802""N 139°32'52.2""E",2025年3月26日,【要再調査】「水神□」は判別可能だが「宮」の文字は判別不可。右側面上部地衣類付着。亀裂、剥落激しい。,★☆☆☆☆,azeyoshi_suwa_shrine_suijingu(left).jpg,TRUE,,
畔吉諏訪神社境内、右の水神宮碑,35.96492,139.54770,water,Blue,Lightblue,1793年,高さ98cm 幅38cm 厚28cm,上尾市大字畔吉835　諏訪神社境内,(右側面)寛政五癸丑年六月吉日　(左側面)施主畔吉村中,"35°57'53.712""N 139°32'51.726""E",2025年3月26日,一見すると状態は良さそうだが黒ずんだ箇所が点々と見られる。左側面に欠損部あり。傘部に地衣類。,★★★☆☆,azeyoshi_suwa_shrine_suijingu(right).jpg,TRUE,,
橘樹神社境内の水神宮碑,35.94505,139.54926,water,Blue,Lightblue,1843年,高さ85cm 幅55cm 厚52cm,上尾市平方2124　橘樹神社境内,(右)寛政五癸丑年正月吉日,"35°56'42.174""N 139°32'57.318""E",2025年3月26日,”平方村河岸出入商人衆奉納の石祠”のとなり、覆屋内3基中、一番左が水神宮。御幣で見えにくいが「宮」の字が見える。台座高さ55。埃をかぶっているのみで地衣類は見当たらない。附近に平方河岸があった。,★★★★★,tachibana_shrine_suijingu.jpg,TRUE,,
西遊馬の水神宮碑,35.90752,139.56021,water,Blue,Lightblue,1865年,高さ130cm 幅37cm 厚27cm,さいたま市西区西遊馬,慶應一丁卯歳秋九月吉日　遊馬村中,"35°54'27.06""N 139°33'36.744""E",2025年3月26日,表面上部黒ずみあり、地衣類は正面と右側面ともに多数。指扇駅ちかくの水神碑と、字体が似ている。さいたま市の市史では明治の水害を経験。,★★★★☆,nisi_asuma_sujingu.jpg,TRUE,,
指扇駅ちかくの水神宮碑(陽眠真),35.91568,139.56212,water,Blue,Lightblue,1867年,高さ75cm 幅59cm 厚57cm,さいたま市西区西遊馬,(表面)「水神宮」「陽眠真」(右)慶應三丁卯歳九月吉日(左)遊馬村中　他,"35°54'56.46""N 139°33'43.638""E",2025年3月26日,台座との境界に黒ずみがあるが、クリーニングされている。,★★★★★,sashiogi_station_suijingu.jpg,TRUE,,
権田薬師堂となりの水天宮碑,36.01206,139.50563,water,Blue,Lightblue,1799年,高さ60cm 幅40cm 厚24cm,北本市石戸宿８丁目,(左側面)願主横田⬜︎⬜︎村中　寛政十一己未六月吉日,"36°0'43.416""N  139°30'20.256""E",2025年3月26日,台座20cm 、多少はあるものの地衣類の付着少ない。表面の文字しっかりしていて読める,★★★★★,gonda_yakushido_suitengu.jpg,TRUE,,
鳥羽井沼の泉地龍水神女神雄神大神,36.00558,139.48770,dragon,green,Lightgreen,1970年,高さ73cm 幅44cm 厚9cm,埼玉県比企郡川島町鳥羽井新田,"(表面)泉地龍水神 女神雄神 大神
(表面左下)祭主長島廷行
(裏面)世話人倉浪吉五郎ほか16人の名前　昭和四十年五月廿七日建　鴻巣石しょう伊藤群鴻","36°0'20.082""N  139°29'15.702""E",2025年3月31日,正面全体的に白い地衣類に覆われている？台座高さ18cm 泉地の龍水神、鳥羽井沼は江戸時代に市野川の度重なる洪水でできた沼。,★★★★★,tobai_pond_dragon.jpg,TRUE,-,明示されていないが…
鳥羽井沼自然公園の九頭龍大権現碑,36.00561,139.48769,dragon,green,Lightgreen,1806年,高さ80cm 幅34cm 厚47cm,埼玉県比企郡川島町鳥羽井新田,"(左側面)願主小見野組中　世話戸羽井両村
(右側面)文化三丙寅年十二月吉日","36°0'20.196""N  139°29'15.696""E",2025年3月31日,多少の欠損があるのみ。享保2年の決壊に長野県戸隠神社から勧請。隣には水難よけといわれる一目連大神宮。,★★★★★,tobai_pond_kuzuryu_dragon.jpg,TRUE,○,川島郷土史 p.180 ~ 土木災害の章を見る限り、市野川と荒川に挟まれ度々洪水を起こしてきた地域の九頭龍碑。p.186には「水難消滅」の文言
飯田新田八幡神社の弁財天碑,35.88717,139.55270,benten,Darkred,Orange,1713年,高さ65cm 幅40cm 厚35cm,さいたま市西区飯田新田367,(表面)正徳三年癸巳天　奉造立辯財天　尊像請願成就攸(仮？) 拯(→手偏に烝という漢字？)月吉辰,"35°53'13.8""N  139°33'9.726""E",2025年3月31日,"傘部に亀裂、修復の跡。正面の文字はかなり鮮明に読める。「拯月吉辰」　吉辰は吉日と同意　　ちかくに齋藤治水翁彰功碑がある。
八幡神社はびん沼川の左岸縁、びん沼川は昭和初期、かなりの蛇行があった。",★★★☆☆,iida_shinden_hachiman_benten.jpg,TRUE,○,明示されていないがびん沼川の八幡様なら水難避けと考える方が自然。
下大屋敷の水天宮碑,35.95631,139.51571,water,Blue,Lightblue,1912年,高さ80cm 幅70cm 厚13cm,埼玉県比企郡川島町下大屋敷,(裏面)発起人岩田仁助他4人 世話人土橋渡船場　明治四十五年六月五日建立　昭和二年三月再建(次に続く文字は判別できない),"35°57'22.728""N  139°30'56.538""E",2025年3月31日,土台高さ32cm 表面剥落激しく、剥がれた破片が下に落ち、早急に対策すべき。表面右に地衣類、裏面は地衣類大量。2019年台風19号で水没。,★★☆☆☆,simo_oyashiki_suitengu.jpg,TRUE,◌,堤防に守られていない河川敷に鎮座しているため、2019年台風19号では洪水の被害に遭っている。
川越市の寛保洪水位標,35.89075,139.54424,other,darkgreen,darkgreen,,高さcm 幅cm 厚cm,川越市久下戸2785,,"35°53'26.694""N  139°32'39.276""E",2025年3月31日,奥貫友山「翁大水記」久下戸氷川社石灯籠を典拠に水位を記録した箇所あり。寛保の洪水記録灯籠が境内にある。,★★★★★,kawagoe_kanpo_flood_water_level_monument.jpg,TRUE,-,寛保の洪水
入間川堤内地の水神宮碑,35.92984,139.53509,water,Blue,Lightblue,,高さcm 幅cm 厚cm,川越市下老袋,,"35°55'47.418""N 139°32'6.33""E",2025年3月31日,右側に地衣類付着。古い。自然石で、風化があるが刻まれた文字は鮮明。銘文等確認できない。,★★☆☆☆,Iruma_river_outside_suijingu.jpg,TRUE,,
彩湖へらぶな供養塔隣の水神宮碑,35.82715,139.63067,water,Blue,Lightblue,-,高さ80cm 幅22.5cm 厚12cm,戸田市美女木,"(右、銘は月日のみ判読)
(台座正面)西 引又ミち二リ
(同右)北 うらわ一リ 東土手 わらび一リ","35°49'37.74""N 139°37'50.4""E",2025年4月4日,荒川の中でも風化、摩耗などトップレベルで激しく状態評価を付けることができない。彩湖は洪水時に貯水池となり水没している。,☆☆☆☆☆,lake_saiko_herabuna_suijingu.jpg,TRUE,,
塚本本通りびん沼川ほとりの九頭龍大神碑,35.87958,139.56072,dragon,green,Lightgreen,1900年,高さ77cm 幅54cm 厚20cm,さいたま市西区塚本町１丁目,(表面横書き左から)山隠戸　(裏面)明治三十三年十月五日,"35°52'46.47""N  139°33'38.604""E",2025年4月4日,正面、むしろ地衣類が鮮明な状態。刻まれた文字ははっきり見える。幣束で祀られ、供え物が多い。横田興業となり。,★★★☆☆,bin_pond_kuzuryu_dragon.jpg,TRUE,○,水難避け(隣の説明板には”水の適切な恵みを得ようとして祀られた”とある)
砂塚橋近くの戸隠山大権現,35.87148,139.56478,dragon,green,Lightgreen,1869年,高さ44cm 幅25cm 厚16cm,,[明治二年四月建立　上南畑村],"35°52'17.322""N  139°33'53.19""E",2025年4月4日,正面は細かい地衣類、右側面に地衣類多数。びん沼川新砂原樋管近く、揚水ポンプのフェンス横。右側面銘文判別不明だが、明治二年建立。,★★☆☆☆,sunatuka_bridge_kuzuryu_dragon.jpg,TRUE,○,水難避け(明示はないが荒れ狂う元荒川のびん沼側近くのため)
田島ヶ原サクラソウ自生地,35.83616,139.61277,other,darkgreen,darkgreen,,高さcm 幅cm 厚cm,さいたま市桜区田島3542,大正九年、国の天然記念物として指定,"35°50'10.158""N  139°36'45.984""E",2025年4月4日,田島ケ原サクラソウ自生地は、サクラソウ自生地として唯一の国指定特別天然記念物。洪水時は貯水池の一部となる。,★★☆☆☆,tajimagahara_Primrose.jpg,TRUE,,2019年台風19号水没時から2年後にはサクラソウが見られているものの、サクラソウの数は年々減少している。
彩湖　天保四年の水神宮碑,35.82739,139.62372,water,Blue,Lightblue,1833年,高さ25cm 幅16cm 厚14cm,戸田市重瀬,(右側面)天保四年巳十月吉□　(左側面)寿三郎　依田平五郎,"35°49'38.586""N  139°37'25.398""E",2025年4月4日,彩湖は洪水時に完全に水没するが状態が悪いわけではない。文字は明確に見えるも左上部などに亀裂、右に欠損あり。供え物多数。,★★★★☆,lake_saiko_submerged_suijingu.jpg,TRUE,○,彩湖完成前の荒川は逆S字に蛇行
彩湖　道満の水神宮碑,35.82438,139.63495,water,Blue,Lightblue,1834年,高さ50cm 幅21cm 厚15cm,戸田市美女木7丁目19,(左側面)天保五午七月吉日 (表面)水神宮　道満中,"35°49'27.756""N  139°38'5.832""E",2025年4月4日,台座に黄色の地衣類。笹目川に注ぐ揚水と彩湖堤防の間に位置する。,★★★☆☆,lake_saiko_doman_suijingu.jpg,TRUE,○,彩湖完成前の荒川は逆S字に蛇行
下内間木氷川神社境内、左奥の水神宮碑,35.81557,139.61730,water,Blue,Lightblue,1920年,高さ50cm 幅24cm 厚17cm,朝霞市下内間木36　下内間木神社境内,(右側面)昭和十一年一月七日下内間木中伊藤並郎他四名　(塔身)大正九年荒川改良工事有　當字依之多年水害地一変美田成喧戦水神当時上打間木地内出現三轉,"35°48'56.046""N 139°37'2.28""E",2025年4月7日,昭和五十八年三月三日改修。美麗。旧地は荒川堤防上にあり、文政三年二月の記年の銘あり。,★★★★★,shimouchimagi_hikawa_shrine_suijingu(back).jpg,TRUE,○,朝霞市内に宮戸河岸、浜崎河岸、根岸河岸、台河岸、井口河岸の5つの河岸場(https://www.city.asaka.lg.jp/site/kyoiku/asaka-sindou.html)、多年水害と刻まれていることから
下内間木氷川神社境内、左手前の水天宮碑,35.81555,139.61733,water,Blue,Lightblue,1655年,高さ38cm 幅22cm 厚12cm,朝霞市下内間木36　下内間木神社境内,(正面)水天宮　(裏面)明暦元乙未　出船八九舟建之　下内間木　蕪木氏,"35°48'55.992""N 139°37'2.37""E",2025年4月7日,調査中、最古の水神碑碑。裏面文字は判別不可も「朝霞市史調査報告書 第9集 (朝霞の石造物 1)」より判明。,★★☆☆☆,shimouchimagi_hikawa_shrine_suijingu(front).jpg,TRUE,○,出船八九船　、河岸関連と考えられる
新河岸公園の水神宮碑,35.79596,139.64956,water,Blue,Lightblue,1821年,高さ113cm 幅50cm 厚21cm,板橋区新河岸３丁目８−８,(裏面)くずし字で刻まれている。文政四年。(正面にも文字あり。要再調査),"35°47'45.462""N  139°38'58.404""E",2025年4月7日,下部、台座に地衣類付着。正面に剥落あり。裏面文字は崩し字のため判読困難。説明板によるともっと古くから早瀬の渡しに祀られていた。「早瀬の渡し水神宮碑」として板橋区指定文化財。,★★★☆☆,sinkasi_park_suijingu.jpg,TRUE,○,「流域で生活する人々は荒川を畏れ神を祀って安寧を祈った」と説明板にある。
長瀞自然の博物館前の水神祠,36.08813,139.11774,water,Blue,Lightblue,1966年,高さcm 幅cm 厚cm,秩父郡長瀞町長瀞９４７ 月の石もみじ公園,昭和四十一年一月再建新井弥平,"36°5'17.274""N 139°7'3.858""E",2025年4月9日,笠部地衣類付着。銘は長瀞町史民族編1 p.326より。祭神は弥都波能売神。舟下りの船頭たちの信仰。11月に祭典があり、すぐそばの水神の井戸についても言及されている。,★★★☆☆,nagatoro_natural_museum_suijin.jpg,TRUE,○,荒川総合調査報告書4巻 p.417、長瀞町史民族編1 p.326から。
金石水管橋下の水神宮碑,36.10533,139.11254,water,Blue,Lightblue,1868年,高さ170cm 幅80cm 厚10cm,長瀞町本野上,慶応四年 辰九月吉旦　本野上村、岩田、藤谷渕、井戸,"36°6'19.182""N 139°6'45.138""E",2025年4月9日,正面、量的には荒川トップクラスの地衣類付着。文字判読困難。すぐ裏手は崖。,★★★☆☆,kanaishi_waterpipebridge_suijingu.jpg,TRUE,○,長瀞町史 p.307による
畠山水神様,36.13303,139.27627,water,Blue,Lightblue,1810年,高さ123cm 幅48cm 厚33cm,深谷市畠山,(右)文化七庚午　(左)畠山村,"36°7'58.914""N 139°16'34.554""E",2025年4月9日,自然石。正面右側のも時が地衣類で判別困難。側面、裏面も同様だが「水神宮」の文字は鮮明。川の漁師、筏師たちが水難よけに進行したと伝えられる。,★★☆☆☆,hatakeyama_suijin.jpg,TRUE,○,"近隣に畠山重忠公史跡公園。鵜飼や投網などによって、魚をとり、生活していた人達や秩父からの材木を江戸に筏で運んだ筏師達も多かった。
これらの人々が、この水神様に無事を祈って信仰したと伝えられている。(説明板による)　"
ふかや花園の水神碑,36.13663,139.24488,water,Blue,Lightblue,1901年,高さ68cm 幅38cm 厚6cm,深谷市永田,(裏面)明治三十四年五月　永田柳出井水下中,"36°8'11.856""N  139°14'41.55""E",2025年4月9日,正面に、金属のさびのような黄色く細かい地衣類付着。柳出井池のほとりに建立。,★★★☆☆,fukaya_hanazono_suijin.jpg,TRUE,×,灌漑
長瀞春日神社の水神宮碑,36.09484,139.11636,water,Blue,Lightblue,不明,高さ60cm 幅42cm 厚25cm,秩父郡長瀞町井戸1222番　春日神社境内,銘なし,"36°5'41.424""N 139°6'58.896""E",2025年4月12日,剥落はなく風化よりは地衣類付着のために正面の文字判別困難。左上部に濃い地衣類。不心得者に崖下に落とされたことも。,★★☆☆☆,nagatoro_kasuga_shrine_suijingu.jpg,TRUE,-,不明
蓬莱島の水神宮碑,36.10421,139.11315,water,Blue,Lightblue,1955年,高さ100cm 幅120cm 厚10cm,長瀞町井戸　蓬莱島公園内,昭和三十年七月五日　風布区一同　石工中川吉三,"36°6'15.138""N 139°6'47.352""E",2025年4月12日,正面下部コケ付着。右側亀裂。裏面銘文は強いライトをあてて初めて判別可能となった。,★★★☆☆,horaijima_suijingu.jpg,TRUE,,
寛保洪水位磨崖標,36.13218,139.12162,other,darkgreen,darkgreen,1742年,高さcm 幅cm 厚cm,埼玉県秩父郡長瀞町野上下郷,,"36°7'55.836""N  139°7'17.844""E",2025年4月12日,大量の地衣類、苔。刻まれた「水」という文字は年々風化の度合いが増している。早急の対策必要。,★☆☆☆☆,nagatoro_kanpo_flood_water_level_monument.jpg,TRUE,-,
矢那瀬の水神様,36.13001,139.14644,water,Blue,Lightblue,1847年,高さ77cm 幅40cm 厚46cm,長瀞町矢那瀬,弘化四年未年十二月吉日　(左)矢那瀬村鮎梁連中,"36°7'48.036""N 139°8'47.184""E",2025年4月17日,笠部地、台座衣類付着、祠正面、左右側面中程度の剥落あり。側面の装飾に花は珍しい。,★★★☆☆,yanase_suijin.jpg,TRUE,◌,弘化三年は大水害のあった年
本田吉野川の水神碑,36.13115,139.29870,water,Blue,Lightblue,1903年,高さ123cm 幅99cm 厚14cm,川本町本田,表面「水神」明治三十六年十月,"36°7'52.134""N 139°17'55.32""E",2025年4月17日,正面、地衣類付着激しい方か。裏はすぐ本田吉野川。,★★★☆☆,honda_yoshino_river_suijin.jpg,TRUE,,
明戸八幡神社の水神碑,36.14145,139.30594,water,Blue,Lightblue,1870年,高さ85cm 幅25cm 厚11cm,深谷市川本明戸113,(裏面)明治三年庚午六月　明戸村7人の氏名,"36°8'29.232""N  139°18'21.378""E",2025年4月17日,表面の地衣類付着著しい。早急に対策必要。判別不能ではないが「水神」の文字が読みにくい。裏面に欠け。2基の塞神碑の中央に位置。,★★☆☆☆,aketo_hachiman_shrine_suijin.jpg,TRUE,-,享保二年の洪水、明治元年、二年、三年、四年、六年と水害発生に苦しめられた(深谷市史)にもあるが、明戸八幡の水神碑との関連は不明。
鹿島古墳群となりの水神宮碑,36.13461,139.30787,water,Blue,Lightblue,1849年,高さ75cm 幅32cm 厚52cm,深谷市本田,(左側面)下本田講中　(右側面)嘉永二酉年十一月吉日,"36°8'4.608""N  139°18'28.32""E",2025年4月17日,屋根部分に大きい亀裂、修理跡。正面剥落あり。向かって3基のうち、一番右。右隣に、同銘文の金比羅大権現碑。左には庚申塔供養塔。鹿島古墳群となり。,★★★☆☆,kasima_tumulus_suijingu.jpg,TRUE,-,詳細不明
玉淀水天宮社,36.11431,139.20064,water,Blue,Lightblue,-,高さcm 幅cm 厚cm,埼玉県大里郡寄居町寄居７０３,-,"36°6'51.522""N 139°12'2.304""E",2025年4月27日,,,tamayodo_suitengu.jpg,TRUE,,
玉淀水天宮奥宮,36.11421,139.20065,water,Blue,Lightblue,,高さ110cm 幅50cm 厚70cm,埼玉県大里郡寄居町寄居,,"36°6'51.15""N  139°12'2.352""E",2025年4月27日,地衣類付着少ない。急な斜面を降りていくと祠がある。台座に移設工事について銘がある。,★★★★☆,tamayodo_suitengu_okunoin.jpg,TRUE,○,この地域の漁師が水難避けに祭った水神様
矢那瀬の市杵島姫尊碑,36.13060,139.14598,benten,Darkred,Orange,1874年,高さ126cm 幅56cm 厚8cm,埼玉県秩父郡長瀞町大字矢那瀬,(表面)矢那瀬川面 市杵嶌姫命　明治七年二月吉日,"36°7'50.148""N  139°8'45.51""E",2025年4月27日,大量の地衣類にて真っ白。台座高さ80cm 矢那瀬の水神祠につづく道の入り口左に位置。右隣は如意輪観音碑。,★★☆☆☆,yanase_sekison_ichikishimahime.jpg,TRUE,-,阿夫利神社、雨乞いに関連がある。長瀞町史民族編1 p.404にある写真左。
矢那瀬石碑群の市杵島姫命碑,36.13370,139.13585,benten,Darkred,Orange,不明,高さ122cm 幅56cm 厚4.5cm,埼玉県秩父郡長瀞町大字矢那瀬,(表面)遠世地区　市杵島姫命　講中　(裏面)明治十二年四月吉日,"36°8'1.314""N  139°8'9.042""E",2025年4月27日,細かい地衣類付着。矢那瀬の石碑群のうちの1基。薄い碑のため、前方に倒れそう。,★★★☆☆,yanase_grouped_monument_ichikishimahime.jpg,TRUE,-,矢那瀬村のどこからか移転されたか
矢那瀬石碑群の辯才天供養塔,36.13371,139.13576,benten,Darkred,Orange,1746年,高さ141cm 幅50cm 厚7cm,埼玉県秩父郡長瀞町大字矢那瀬,(表面)延享三歳矢那瀬村　辯才天供養塔　丙寅六月吉日講中二十一人,"36°8'1.362""N  139°8'8.718""E",2025年4月27日,緑色の細かい地衣類、下部にも。種子 सु(ソ) が刻まれている。延享三。,★★★☆☆,yanase_grouped_monument_benten.jpg,TRUE,-,矢那瀬村のどこからか移転されたか
押切の波乗り弁才天,36.13269,139.32309,benten,Darkred,Orange,1727年,高さ95cm 幅39cm 厚21cm,熊谷市押切,(正面右)享保十二丁未二月吉日(正面左)武刕(このあと欠字)押切村,"36°7'57.696""N 139°19'23.124""E",2025年5月4日,正面右側地衣類付着、正面左側剥落のため欠字。熊谷デジタルミュージアムの写真の方が地衣類付着がひどい。その後クリーニングしたか？,★★★★☆,naminori_benten_monument.jpg,TRUE,○,「洪水がよく押し切った」地域のため「押切」という地名。波に乗る弁財天の形状から。
大麻生陸閘,36.14536,139.34268,other,darkgreen,darkgreen,1954年,高さ260cm 幅400cm 厚290cm,熊谷市大麻生,-,"36°8'43.308""N 139°20'33.642""E",2025年5月4日,大麻生陸閘は、現在荒川に唯一残っている陸閘。洪水時に洪水から住宅側を守るため、角落としと呼ばれる角材を積み上げて、堤防とする。,,oaso_land_gate.jpg,TRUE,-,
押切三峯神社となりの水神宮碑,36.13405,139.32808,water,Blue,Lightblue,1865年,高さ50cm 幅25cm 厚40cm,熊谷市押切,(右側面)慶應元□乙年　十一月吉日,"36°8'2.592""N  139°19'41.07""E",2025年5月4日,笠部欠損、亀裂、剥落あり。正面に刻まれた文字は鮮明。押切橋ちかく。,★★★☆☆,oshikiri_mitsumine_suijingu.jpg,TRUE,-,詳細不明
押切持田稲荷神社近くの九頭龍権現碑,36.13460,139.33689,dragon,green,Lightgreen,1839年,高さ75cm 幅38cm 厚40cm,熊谷市押切,(右側面)天保十己亥年二月吉日建之 (左側面)判別不可,"36°8'4.548""N  139°20'12.81""E",2025年5月4日,笠部剥落、亀裂あり。左側面の文字4行刻まれているが風化して判別不能。墓地にはいっていく通路の一番奥、小高い盛り土の上。村岡の九頭龍大権現よりも上流。,★★★☆☆,oshikiri_mochida_inari_kuzuryu_dragon.jpg,TRUE,○,詳細不明も、荒川がすぐ近くのため水難よけ
上新田の弁才天,36.13112,139.31838,benten,Darkred,Orange,-,高さ72cm 幅25cm 厚18cm,熊谷市上新田,(左側面)大里郡上新田　(右側面)判別不能,"36°7'52.038""N  139°19'6.18""E",2025年5月4日,剥落、左部に欠損あり。右側面に地衣類付着し銘文判別不能。上新田の石仏石塔群のなかの1基。,★★★☆☆,kamishinden_benten.jpg,TRUE,-,詳細不明
成沢赤城神社の弁財天碑,36.12431,139.34535,benten,Darkred,Orange,1745年,高さ95cm 幅40cm 厚26cm,熊谷市成沢346-2,(左側面)武刕大里郡上吉見□　(右側面)延享二□二月吉日,"36°7'27.516""N  139°20'43.266""E",2025年5月4日,8本の腕(八臂弁財天)。厚く地衣類付着。笠部欠損。東部や両手の白い色は地衣類か？状態はよくない。台座には苔と黄色の地衣類。他に8体以上の石碑が並ぶ。,★★☆☆☆,narusawa_akagi_shrine_benten.jpg,TRUE,-,なるさわを鳴る沢、として水量の豊かな沢や谷を連想できると熊谷市公式Web。飲料水確保の類いか。
滝馬室氷川神社参道横の弁財天碑,36.04928,139.50305,benten,Darkred,Orange,不明,高さ30cm 幅17cm 厚13cm,鴻巣市滝馬室1151,銘なし,"36°2'57.39""N  139°30'10.962""E",2025年5月8日,正面文字「才天」箇所に緑の地衣類。部滝馬室氷川神社には神池(弁財池)がありそのほとりに祀られている。表面上部に蛇の線画あり。,★★★★☆,takimamuro_hikawa_benten.jpg,TRUE,-,神池のほとり、なので
妙楽寺の水神宮碑,36.03754,139.50782,water,Blue,Lightblue,不明,高さ70cm 幅33cm 厚8cm,鴻巣市原馬室2965-2,銘なし[昭和六年？],"36°2'15.138""N  139°30'28.164""E",2025年5月8日,正面地衣類付着少ない。妙楽寺入り口左に3基祀られているうち、一番左。,★★★★☆,myoraku_temple_suijingu.jpg,TRUE,-,詳細不明
妙楽寺の弁財菩薩祠,36.03754,139.50782,benten,Darkred,Orange,1920年,高さ - cm 幅 - cm 厚 - cm,鴻巣市原馬室2965-2,大正九年,"36°2'15.138""N  139°30'28.158""E",2025年5月8日,祠が祠の中に入れられている。外側の祠は笠部剥落激しいが中は判別できなかった。妙楽寺入り口左に3基祀られているうち、一番右。中央に1678年建立の庚申塔,★★★★☆,myoraku_temple_benten.jpg,TRUE,-,詳細不明
高尾橋の白龍大神碑,36.02682,139.50597,dragon,green,Lightgreen,不明,高さ83cm 幅32cm 厚32cm,北本市高尾6丁目,(裏面)東京本郷　高橋久和,"36°1'36.534""N  139°30'21.474""E",2025年5月8日,状態はよい。高尾橋水神碑のちかく,★★★★★,takao_hakuryuokami.jpg,TRUE,-,詳細不明
沖天神社境内の水神宮碑,35.82486,139.64157,water,Blue,Lightblue,-,高さ62cm 幅19cm 厚12cm,戸田市美女木3-18-7　沖天神社境内,あじさいが横にあり右側面判別できない、左側面風化,"35°49'29.508""N 139°38'29.664""E",2025年5月13日,状態悪い、早急に対策必要。状態の評価は付けることができない。正面文字も「水」のみ確認できる程度,☆☆☆☆☆,chuten_shrine_suijingu.jpg,TRUE,,
美女八幡社境内の水神宮碑,35.82521,139.63683,water,Blue,Lightblue,1910年,高さ72cm 幅59cm 厚14cm,戸田市美女木7-9-1　美女木八幡社境内,明治四十三年二月,"35°49'30.75""N 139°38'12.582""E",2025年5月13日,濃くはっきりとした地衣類が正面に付着。正面上部、左右に剥落あり。,★★★☆☆,bijyo_hachiman_shrine_suijingu.jpg,TRUE,,
山王神社境内の水神宮碑,35.82919,139.63817,water,Blue,Lightblue,1862年,高さ67cm 幅32cm 厚19cm,戸田市美女木1-23-15　山王神社境内,文久二壬戌年□月吉日,"35°49'45.09""N 139°38'17.418""E",2025年5月13日,文久二壬戌年八月吉日と刻まれているはずだが、「八」の箇所は削り取られたかのように判別不能。左側裏面欠けあり。,★★☆☆☆,sanno_shrine_suijingu.jpg,TRUE,,
早瀬浅間社境内の水神宮碑,35.80341,139.64553,water,Blue,Lightblue,1812年,高さ49.5cm 幅16cm 厚17cm,戸田市笹目8-14-7　早瀬浅間神社境内,(右)文化九壬申年六月吉日立 (台座)　講中,"35°48'12.282""N 139°38'43.902""E",2025年5月13日,地衣類が表面より下の層に浸透しているかのように見える。笠部に欠けあり。,★★☆☆☆,hayase_sengen_shrine_suijingu.jpg,TRUE,,
戸田川岸水神社の水神宮・船玉大明神,35.80186,139.68648,water,Blue,Lightblue,1796年,高さ150cm 幅115cm 厚16cm,戸田市川岸1-7-7,寛政八年(境内説明板より),"35°48'6.702""N 139°41'11.31""E",2025年5月15日,今回の調査中、一番剥落が激しく多かった。早急に対策必要、評価不可。近くには天正年中(1575年~)からあったという戸田の渡しがあった。7月に水神祭。,☆☆☆☆☆,toda_suijingu_hunadama.jpg,TRUE,○,水難よけ　昔は、その年にはじめて採れたキュウリをこの水神社に供え、この後に荒川に流してからでないと泳ぐことができなかった。
戸田川岸水神社の水神宮・大杉大神,35.80198,139.68655,water,Blue,Lightblue,1890年,高さ42cm 幅25cm 厚19cm,戸田市川岸1-7-7,(右)明治二十三年九月之建　永井勘次郎,"35°48'7.14""N 139°41'11.592""E",2025年5月15日,右上部欠けあり。樹木に隠れていて近づくことができない。,★★★☆☆,toda_osugiokami_suijingu_monument.jpg,TRUE,,
舟渡氷川神社の十度ノ宮,35.79523,139.69057,water,Blue,Lightblue,1659年,高さcm 幅cm 厚cm,舟渡二丁目18番1号（舟渡氷川神社境内）,(右面)万治二巳己亥 (西南)奉修造立氷川大明神御宝前 (左面)寛保三癸亥年十二月造立武州豊島郡蓮沼村別当金剛院,"35°47'42.828""N  139°41'26.052""E",2025年5月15日,「このお宮は、昔から蓮沼村の西南にあったが、何度もの洪水で押流(おしなが)されて、今の場所に流寄(ながれよ)せられることが十度にも及んだので、ここに塚を築き、榎(えのき)を植えて神社とした。地域の人は今でも「十度ノ宮」と呼んでいる」,★★★★★,jyudo_no_miya.jpg,TRUE,○,十度ノ宮」は、洪水によって歴史資料がほとんどない舟渡地域に今も残っている貴重な資料
浮間渡船場跡供養塔群の水神宮碑,35.78307,139.69949,water,Blue,Lightblue,不明,高さ57cm 幅41cm 厚- cm,東京都北区浮間３丁目６−１７(浮間渡船場),(正面)水神宮,"35°46'59.058""N  139°41'58.146""E",2025年5月15日,笠部左右に欠けあり、表面の文字ほとんど読めず、光を当てて「水神ー」と読める程度、おそなえの酒が。正面の新河岸川に向かって祀られる。,★★☆☆☆,ukima_river_crossing_suijingu.jpg,TRUE,○,かつて渡船場があり
小豆沢神社の水神宮(奥の鳥居),35.78018,139.69885,water,Blue,Lightblue,不明,高さ86cm 幅49cm 厚32cm,東京都板橋区小豆沢4丁目16　小豆沢神社境内,(左側面)願主　仲右エ門 (左側面)水神宮　(台座右側面)□□安全　(台座表面左)舩持中 (台座表面右)小豆沢村,"35°46'48.654""N  139°41'55.872""E",2025年5月15日,笠部比較的広い剥落。石で積んだ台座の高さは86cm 屋根が剥がれ落ちそうになっている。,★★☆☆☆,azusawa_shrine_back_sujingu.jpg,TRUE,○,板橋区史資料編5(民俗) p.873　(同じ)小豆沢四丁目からの移転
小豆沢神社の水神宮(手前),35.78022,139.69886,water,Blue,Lightblue,1920年,高さ37cm 幅38cm 厚13cm,東京都板橋区小豆沢4丁目16　小豆沢神社境内,(表面)大正九年十一月　水神宮　川端□,"35°46'48.804""N  139°41'55.902""E",2025年5月15日,表面の文字はすべて篆書体で刻まれている。小型のためもあり状態はよいが右側は剥落か？,★★★★★,azusawa_shrine_forward_sujingu.jpg,TRUE,-,詳細不明
齋藤治水翁彰功碑,35.88703,139.55847,other,darkgreen,darkgreen,1951年,高さcm 幅cm 厚cm,さいたま市西区飯田新田,,"35° 53' 13.308""N  139° 33' 30.498""E",2025年5月20日,蛇行していた荒川はよく氾濫したが、それを直線化する工事に斉藤祐美が尽力し、彼は治水翁といわれた。現在のびん沼川がかつての蛇行していた荒川。旧治水橋は解体されたが当時のトラスの一部がここに保存されている。,★★★★★,saito_jisuio_monument.jpg,TRUE,,
勘兵衛稲荷神社の湧水,36.05141,139.50232,other,darkgreen,darkgreen,-,高さcm 幅cm 厚cm,鴻巣市滝馬室1131-21 堪兵衛稲荷神社,,"36°3'5.088""N  139°30'8.334""E",2025年5月20日,水量は滝馬室の氷川神社神池と同等。,,kanbee_inari_spring water.jpg,TRUE,×,湧水にまつわるもので水難よけではない
北本市高尾8-119厳島社の弁天社,36.02302,139.51236,benten,Darkred,Orange,-,高さcm 幅cm 厚cm,埼玉県北本市高尾7丁目29,,"36°1'22.872""N  139°30'44.49""E",2025年5月20日,弁天池は湧水。しめ縄が龍の形になっている。龍がこの池の杉（龍燈杉）より昇天したとの伝説がある。,,kitamototakaohikawa_shrine_benten.jpg,TRUE,×,湧水にまつわるもので水難よけではない
泉福寺山門、雨乞いの龍,35.98154,139.52378,other,darkgreen,darkgreen,1662年,高さcm 幅cm 厚cm,桶川市川田谷2012,[寛文2年山門再建],"35°58'53.532""N  139°31'25.59""E",2025年5月20日,泉福寺開山829年も度重なる戦火で焼失。宝暦二年山門、鐘楼を除きほとんど完成。山門の龍は針金で縛られている。,★★★★★,senpuku_temple_rain_making_dragon.jpg,TRUE,×,雨乞いの龍
下大久保諏訪社の水神宮碑,35.86102,139.60176,water,Blue,Lightblue,,高さ205cm 幅80cm 厚20cm,さいたま市桜区下大久保1029,(裏面)明治三十年一月一日　羽根倉川河岸　講社中,"35°51'39.672""N  139°36'6.336""E",2025年5月20日,調査した中では最大の高さ。正面上部は黒ずんでいる。表面にひっかき傷。左に緑色の地衣類。大正九年まで荒川のちかくに祀られていた。,★★★★☆,shimookubo_suwa_shrine_suijingu.jpg,TRUE,○,水難避け、説明板による
志茂熊野神社の水神祭,35.78328,139.73216,other,darkgreen,darkgreen,,高さcm 幅cm 厚cm,,,"35° 46' 59.82""N  139° 43' 55.782""E",2025年6月25日,水神祭のようす,,shimokumano_shrine_suijin_fes.jpg,TRUE,,
弁天講の亀ヶ池弁財天,35.77633,139.71736,benten,Darkred,Orange,,高さcm 幅cm 厚cm,,,"35°46'34.77""N  139°43'2.5""E",2025年8月9日,弁天講がある。,★★★★★,kamegaike_pond_benten.jpg,TRUE,×,家内安全所願成就
常永寺の水難者供養塔,36.11191,139.39977,other,darkgreen,darkgreen,1939年,高さ159cm 幅48cm 厚21cm,熊谷市小泉１７ 常永寺境内,昭和14年九月一日建立　水難者37名の氏名,"36°6'42.888""N  139°23'59.178""E",2025年3月14日,表面は中程度の地衣類付着。大里村の石佛p.108　昭和十三年九月一日荒川堤防市田地先決壊水難犠牲者三十七精霊法並俗名,★★★☆☆,jyoei_temple_suinankuyou.jpg,TRUE,○,水難者供養塔　水害に関連
長徳寺の辯才天,35.76944,139.69731,benten,Darkred,Orange,1805年,高さ74cm 幅cm 厚cm,板橋区大原町４０−７,奉納　辨才天 (右側面)文化二乙丑歳三月吉日當村 長徳寺住大道代　願主鈴木勝□　(左)世話人4人の氏名,"35°46'9.966""N  139°41'50.316""E",2025年8月12日,笠部に地衣類。全体的に黒ずんでいるが浮彫は状態がよい。。銘文は「石仏 改定版 (文化財シリーズ ; 第79集) (いたばしの石造文化財 ; その4)」より。状態良い。台座と屋根に地衣類。笠付角柱に、像容は陽刻されている。,★★★★☆,chotokuji_temple_benten.jpg,TRUE,×,不明
長楽氷川神社境内の修堤記念碑(都幾川),36.00383,139.42696,other,darkgreen,darkgreen,1914年,高さ250cm 幅102cm 厚10cm,埼玉県比企郡川島町長楽255　長楽氷川神社境内,大正二年八月二十七日洪水氾濫都幾川堤防越水...(略)大正三年建立,"36°0'13.776""N  139°25'37.056""E",2025年8月14日,黄色と白の地衣類付着。大正2年8月27日午前2時頃、明治43年より高い葛袋堤防を濁流は総越しした。葛袋字川北部落では床上浸水1mに及び、その跡が壁や障子に残っている。この時川島町長楽の土手が4箇所にわたり決壊した(東松山市史編さん調査報告 第17集 )。,★★★★☆,nagaraku_hikawa_shrine_monument.jpg,TRUE,-,修堤記念碑　コメント欄は「東松山市史編さん調査報告 第17集 (都幾川・越辺川流域の民俗)」より。「https://www.pref.saitama.lg.jp/documents/37621/02-002.pdf」の文章参照
長楽早俣橋北の九頭竜大権現碑,36.00293,139.42488,dragon,green,Lightgreen,1866年,高さ52cm 幅18cm 厚11cm,埼玉県比企郡川島町長楽,(右)慶應二年八月　 (左)施主 長楽村中,"36°0'10.53""N 139°25'29.568""E",2025年8月14日,早俣橋北。風化、摩耗、剥落がは激しく「九」と「大権現」のみ判別可能。右側面にわずかに「慶應」と読める程度。早急な対策必要。,★☆☆☆☆,hayamata_bridge_north_kuzuryu_dragon.jpg,TRUE,○,「東松山市史編さん調査報告 第17集 (都幾川・越辺川流域の民俗)」には洪水多発とある。
長楽早俣橋南の九頭竜大権現碑,35.99997,139.42454,dragon,green,Lightgreen,,高さ50cm 幅18cm 厚11cm,埼玉県比企郡川島町長楽,,"35°59'59.886""N  139°25'28.344""E",2025年8月14日,早俣橋南。劣化度合いは「北」と同様。北の九頭竜大権現とほとんど同寸。全体と表面の形状も似ているのでこの2基は同型で、同時期に祀られたと自然に考えられる。「九」と「現」は判別できる。,★☆☆☆☆,hayamata_bridge_south_kuzuryu_dragon.jpg,TRUE,○,都幾川の濁流にのまれ風化したと考えられる
椚平の水神社,35.95250,138.92615,water,Blue,Lightblue,,高さcm 幅cm 厚cm,秩父市大滝,,"35°57'8.982""N 138°55'34.128""E",2025年8月22日,湧水が多い。,★★★★☆,otaki_kunugidaira_sujin.jpg,FALSE,,水場、この近辺は湧水が多いイメージ
鴻巣市大間の災害復旧記念碑,36.05496,139.50011,other,darkgreen,darkgreen,,高さ183cm 幅100cm 厚20cm,鴻巣市滝馬室,,"36°3'17.862""N  139°30'0.402""E",2025年5月20日,台座高さ20cm。所々に地衣類がある。,★★★★☆,kounosu_oma_saigai_recovery_memorial_monument.jpg,FALSE,,
葛袋の九頭龍祠,36.02267,139.37661,dragon,green,Lightgreen,不明,高さcm 幅cm 厚cm,東松山市葛袋,木製の祠に九頭龍神社という扁額,"36°1'21.60""N 139°22'35.80""E",未調査,2025年9月28日現在未調査。2019年台風19号との関連を調べるためのもの。高畑樋管そば。,,,,○,地元では水難除けの神様といわれている(東松山市史 資料編 第5巻 (民俗編)p.266)
上押垂の九頭龍大神,36.01734,139.39605,dragon,green,Lightgreen,1910年,高さcm 幅cm 厚cm,東松山市上押垂２２７−３,上押垂　下青鳥　九頭龍大神　明治四十三年 七十九翁口武書　九月二十一日 宮下石材店　明治四十三年九月二十一日,"36°1'2.41""N 139°23'45.78""E",未調査,2025年9月28日現在未調査。2-19年台風19号との関連を調べるためのもの。明治43年の大洪水でできたおっぽり沼、相向かいの土手にある,,,,○,上押垂、おっぽり沼の九頭龍大神、明治43年の大洪水でできたおっぽり沼、相向かいの土手にある
悪戸の九頭龍大神,36.01410,139.38943,dragon,green,Lightgreen,1869年,高さcm 幅cm 厚cm,東松山市西本宿１４７４−１,九頭龍大神　(裏面)悪戸中　明治二己已孟夏,"36°0'50.77""N 139°23'21.96""E",未調査,2025年9月28日現在未調査。2-19年台風19号との関連を調べるためのもの。毎年の水難に悩まされた人々は土手を築いたが、明治43年の大洪水で堤防は決壊する。,,,,○,毎年の水難に悩まされた人々は土手を築いたが、明治43年の大洪水で堤防は決壊。
早俣の九頭竜大神,36.00738,139.41175,dragon,green,Lightgreen,1818年,高さcm 幅cm 厚cm,,"□時　文政元戌寅□十一月吉日
武州早又村　世話人　林庄右衛門 千代田□兵衛　松本□七","36°0'26.56""N 139°24'42.30""E",未調査,2025年9月28日現在未調査。2-19年台風19号との関連を調べるためのもの。,,,,○,
白山神社の九頭龍大権現 1,35.99574,139.43079,dragon,green,Lightgreen,1853年,高さcm 幅cm 厚cm,,嘉永六年四月　赤尾村中,"35°59'44.65""N 139°25'50.83""E",未調査,2025年9月28日現在未調査。2-19年台風19号との関連を調べるためのもの。地理的にも洪水が起きやすかった。,,,,○,
白山神社の九頭龍大権現 2,35.99573,139.43062,dragon,green,Lightgreen,1853年,高さcm 幅cm 厚cm,,嘉永六年六月　赤尾村中,"35°59'44.61""N 139°25'50.23""E",未調査,2025年9月28日現在未調査。2-19年台風19号との関連を調べるためのもの。,,,,○,